{
  "updatedAt": "2026-05-17T07:19:01.635Z",
  "rules": {
    "requiredBands": [
      "N78",
      "N78+",
      "N28",
      "N28+"
    ],
    "distanceMeters": 350,
    "yoigoAsOrange": true
  },
  "runs": [
    {
      "generatedAt": "2026-05-17T07:19:01.635Z",
      "previousSnapshotAt": "2026-05-16T06:38:39.853Z",
      "summary": {
        "totalChanges": 0,
        "gained": 0,
        "lost": 0,
        "totalBandChangeSites": 0,
        "totalBandsAdded": 0,
        "totalBandsRemoved": 0
      },
      "changes": [],
      "bandChanges": []
    },
    {
      "generatedAt": "2026-05-16T06:38:39.853Z",
      "previousSnapshotAt": "2026-05-15T07:39:16.973Z",
      "summary": {
        "totalChanges": 2,
        "gained": 2,
        "lost": 0,
        "totalBandChangeSites": 3,
        "totalBandsAdded": 8,
        "totalBandsRemoved": 1
      },
      "changes": [
        {
          "id": 5769,
          "operador": "TELEFÓNICA MÓVILES ESPAÑA, S.A.",
          "provincia": "Sevilla",
          "direccion": "Cañada Rosal",
          "change": "declara_ahora",
          "fromDeclared": false,
          "toDeclared": true,
          "previousBands": [
            "B1"
          ],
          "currentBands": [
            "N78+",
            "B1",
            "B20",
            "N28",
            "G09"
          ],
          "previousCodes": [
            "4101499"
          ],
          "currentCodes": [
            "4101499"
          ],
          "previousLat": 37.599219,
          "previousLon": -5.209525,
          "currentLat": 37.599219,
          "currentLon": -5.209525
        },
        {
          "id": 7617,
          "operador": "TELEFÓNICA MÓVILES ESPAÑA, S.A.",
          "provincia": "Burgos",
          "direccion": "09_09325_000706",
          "change": "declara_ahora",
          "fromDeclared": false,
          "toDeclared": true,
          "previousBands": [
            "G09"
          ],
          "currentBands": [
            "N78+",
            "B8",
            "B20",
            "N28",
            "G09"
          ],
          "previousCodes": [
            "0900108"
          ],
          "currentCodes": [
            "900108"
          ],
          "previousLat": 41.995472,
          "previousLon": -3.952694,
          "currentLat": 41.995472,
          "currentLon": -3.952694
        }
      ],
      "bandChanges": [
        {
          "id": 5207,
          "operador": "ORANGE ESPAGNE S.A.",
          "provincia": "Salamanca",
          "direccion": "Carbajosa de la Sagrada",
          "fromDeclared": true,
          "toDeclared": true,
          "fromMatched": true,
          "toMatched": true,
          "previousBands": [
            "B1",
            "B20",
            "B3",
            "G09",
            "N28",
            "N78",
            "U21"
          ],
          "currentBands": [
            "B1",
            "B20",
            "B3",
            "G09",
            "N28",
            "N78"
          ],
          "addedBands": [],
          "removedBands": [
            "U21"
          ],
          "previousCodes": [
            "CYLR5610C"
          ],
          "currentCodes": [
            "CYLR5610C"
          ],
          "previousLat": 40.933422,
          "previousLon": -5.648258,
          "currentLat": 40.933422,
          "currentLon": -5.648258
        },
        {
          "id": 5769,
          "operador": "TELEFÓNICA MÓVILES ESPAÑA, S.A.",
          "provincia": "Sevilla",
          "direccion": "Cañada Rosal",
          "fromDeclared": false,
          "toDeclared": true,
          "fromMatched": true,
          "toMatched": true,
          "previousBands": [
            "B1"
          ],
          "currentBands": [
            "B1",
            "B20",
            "G09",
            "N28",
            "N78+"
          ],
          "addedBands": [
            "B20",
            "G09",
            "N28",
            "N78+"
          ],
          "removedBands": [],
          "previousCodes": [
            "4101499"
          ],
          "currentCodes": [
            "4101499"
          ],
          "previousLat": 37.599219,
          "previousLon": -5.209525,
          "currentLat": 37.599219,
          "currentLon": -5.209525
        },
        {
          "id": 7617,
          "operador": "TELEFÓNICA MÓVILES ESPAÑA, S.A.",
          "provincia": "Burgos",
          "direccion": "09_09325_000706",
          "fromDeclared": false,
          "toDeclared": true,
          "fromMatched": true,
          "toMatched": true,
          "previousBands": [
            "G09"
          ],
          "currentBands": [
            "B20",
            "B8",
            "G09",
            "N28",
            "N78+"
          ],
          "addedBands": [
            "B20",
            "B8",
            "N28",
            "N78+"
          ],
          "removedBands": [],
          "previousCodes": [
            "0900108"
          ],
          "currentCodes": [
            "900108"
          ],
          "previousLat": 41.995472,
          "previousLon": -3.952694,
          "currentLat": 41.995472,
          "currentLon": -3.952694
        }
      ]
    },
    {
      "generatedAt": "2026-05-15T07:39:16.973Z",
      "previousSnapshotAt": "2026-05-14T07:26:36.986Z",
      "summary": {
        "totalChanges": 9,
        "gained": 9,
        "lost": 0,
        "totalBandChangeSites": 30,
        "totalBandsAdded": 34,
        "totalBandsRemoved": 11
      },
      "changes": [
        {
          "id": 978,
          "operador": "TELEFÓNICA MÓVILES ESPAÑA, S.A.",
          "provincia": "Barcelona",
          "direccion": "Santa Coloma de Cervelló",
          "change": "declara_ahora",
          "fromDeclared": false,
          "toDeclared": true,
          "previousBands": [
            "B3",
            "B20",
            "G09"
          ],
          "currentBands": [
            "N78+",
            "B3",
            "B20",
            "N28+",
            "G09"
          ],
          "previousCodes": [
            "0801508"
          ],
          "currentCodes": [
            "0801508"
          ],
          "previousLat": 41.364419,
          "previousLon": 2.031417,
          "currentLat": 41.364419,
          "currentLon": 2.031417
        },
        {
          "id": 1448,
          "operador": "AVATEL TELECOM S.A.",
          "provincia": "Cáceres",
          "direccion": "Santa Marta de Magasca",
          "change": "declara_ahora",
          "fromDeclared": false,
          "toDeclared": true,
          "previousBands": [
            "B1",
            "B3",
            "B20",
            "G09"
          ],
          "currentBands": [
            "N78",
            "B1",
            "B3",
            "B20",
            "N28",
            "G09"
          ],
          "previousCodes": [
            "EXTR6562A"
          ],
          "currentCodes": [
            "EXTR6562A"
          ],
          "previousLat": 39.513028,
          "previousLon": -6.103444,
          "currentLat": 39.513028,
          "currentLon": -6.103444
        },
        {
          "id": 2446,
          "operador": "VODAFONE ESPAÑA S.A.",
          "provincia": "Girona",
          "direccion": "Sant Joan les Fonts",
          "change": "declara_ahora",
          "fromDeclared": false,
          "toDeclared": true,
          "previousBands": [
            "B20",
            "G09"
          ],
          "currentBands": [
            "N78",
            "B20",
            "N28",
            "G09"
          ],
          "previousCodes": [
            "053232",
            "53232"
          ],
          "currentCodes": [
            "053232",
            "53232"
          ],
          "previousLat": 42.200053,
          "previousLon": 2.53575,
          "currentLat": 42.200053,
          "currentLon": 2.53575
        },
        {
          "id": 2465,
          "operador": "VODAFONE ESPAÑA S.A.",
          "provincia": "Girona",
          "direccion": "Peralada",
          "change": "declara_ahora",
          "fromDeclared": false,
          "toDeclared": true,
          "previousBands": [
            "B3",
            "B20",
            "G09"
          ],
          "currentBands": [
            "N78",
            "B3",
            "B20",
            "N28",
            "G09"
          ],
          "previousCodes": [
            "018611",
            "18611"
          ],
          "currentCodes": [
            "018611",
            "18611"
          ],
          "previousLat": 42.309267,
          "previousLon": 3.010544,
          "currentLat": 42.309267,
          "currentLon": 3.010544
        },
        {
          "id": 2470,
          "operador": "VODAFONE ESPAÑA S.A.",
          "provincia": "Girona",
          "direccion": "Alp",
          "change": "declara_ahora",
          "fromDeclared": false,
          "toDeclared": true,
          "previousBands": [],
          "currentBands": [
            "N78",
            "N28"
          ],
          "previousCodes": [],
          "currentCodes": [
            "4764"
          ],
          "previousLat": null,
          "previousLon": null,
          "currentLat": 42.346586,
          "currentLon": 1.958314
        },
        {
          "id": 2944,
          "operador": "TELEFÓNICA MÓVILES ESPAÑA, S.A.",
          "provincia": "Guadalajara",
          "direccion": "Mazarete",
          "change": "declara_ahora",
          "fromDeclared": false,
          "toDeclared": true,
          "previousBands": [
            "B3",
            "B20",
            "G09"
          ],
          "currentBands": [
            "N78+",
            "B3",
            "B20",
            "N28",
            "G09"
          ],
          "previousCodes": [
            "1900007"
          ],
          "currentCodes": [
            "1900007"
          ],
          "previousLat": 40.978011,
          "previousLon": -2.185108,
          "currentLat": 40.978011,
          "currentLon": -2.185108
        },
        {
          "id": 4553,
          "operador": "TELEFÓNICA MÓVILES ESPAÑA, S.A.",
          "provincia": "Navarra",
          "direccion": "Roncal/Erronkari",
          "change": "declara_ahora",
          "fromDeclared": false,
          "toDeclared": true,
          "previousBands": [
            "B20",
            "G09"
          ],
          "currentBands": [
            "N78+",
            "B20",
            "N28",
            "G09"
          ],
          "previousCodes": [
            "3100230"
          ],
          "currentCodes": [
            "3100230"
          ],
          "previousLat": 42.796433,
          "previousLon": -0.964044,
          "currentLat": 42.796433,
          "currentLon": -0.964044
        },
        {
          "id": 4558,
          "operador": "TELEFÓNICA MÓVILES ESPAÑA, S.A.",
          "provincia": "Navarra",
          "direccion": "Esteribar",
          "change": "declara_ahora",
          "fromDeclared": false,
          "toDeclared": true,
          "previousBands": [
            "B8",
            "B20",
            "U21",
            "G09"
          ],
          "currentBands": [
            "N78+",
            "B8",
            "B20",
            "N28",
            "U21",
            "G09"
          ],
          "previousCodes": [
            "3100084"
          ],
          "currentCodes": [
            "3100084"
          ],
          "previousLat": 42.916994,
          "previousLon": -1.503097,
          "currentLat": 42.916994,
          "currentLon": -1.503097
        },
        {
          "id": 7341,
          "operador": "TELEFÓNICA MÓVILES ESPAÑA, S.A.",
          "provincia": "Araba/Álava",
          "direccion": "01_01047_000156",
          "change": "declara_ahora",
          "fromDeclared": false,
          "toDeclared": true,
          "previousBands": [
            "B20",
            "G09"
          ],
          "currentBands": [
            "N78+",
            "B20",
            "G09"
          ],
          "previousCodes": [
            "0100053"
          ],
          "currentCodes": [
            "0100053"
          ],
          "previousLat": 42.714108,
          "previousLon": -2.911056,
          "currentLat": 42.714108,
          "currentLon": -2.911056
        }
      ],
      "bandChanges": [
        {
          "id": 43,
          "operador": "TELEFÓNICA MÓVILES ESPAÑA, S.A.",
          "provincia": "Araba/Álava",
          "direccion": "Ayala/Aiara",
          "fromDeclared": true,
          "toDeclared": true,
          "fromMatched": true,
          "toMatched": true,
          "previousBands": [
            "B20",
            "B8",
            "G09",
            "N28"
          ],
          "currentBands": [
            "B20",
            "B8",
            "G09",
            "N28",
            "N78+"
          ],
          "addedBands": [
            "N78+"
          ],
          "removedBands": [],
          "previousCodes": [
            "0100097"
          ],
          "currentCodes": [
            "0100097"
          ],
          "previousLat": 43.098044,
          "previousLon": -3.089278,
          "currentLat": 43.098044,
          "currentLon": -3.089278
        },
        {
          "id": 978,
          "operador": "TELEFÓNICA MÓVILES ESPAÑA, S.A.",
          "provincia": "Barcelona",
          "direccion": "Santa Coloma de Cervelló",
          "fromDeclared": false,
          "toDeclared": true,
          "fromMatched": true,
          "toMatched": true,
          "previousBands": [
            "B20",
            "B3",
            "G09"
          ],
          "currentBands": [
            "B20",
            "B3",
            "G09",
            "N28+",
            "N78+"
          ],
          "addedBands": [
            "N28+",
            "N78+"
          ],
          "removedBands": [],
          "previousCodes": [
            "0801508"
          ],
          "currentCodes": [
            "0801508"
          ],
          "previousLat": 41.364419,
          "previousLon": 2.031417,
          "currentLat": 41.364419,
          "currentLon": 2.031417
        },
        {
          "id": 1448,
          "operador": "AVATEL TELECOM S.A.",
          "provincia": "Cáceres",
          "direccion": "Santa Marta de Magasca",
          "fromDeclared": false,
          "toDeclared": true,
          "fromMatched": true,
          "toMatched": true,
          "previousBands": [
            "B1",
            "B20",
            "B3",
            "G09"
          ],
          "currentBands": [
            "B1",
            "B20",
            "B3",
            "G09",
            "N28",
            "N78"
          ],
          "addedBands": [
            "N28",
            "N78"
          ],
          "removedBands": [],
          "previousCodes": [
            "EXTR6562A"
          ],
          "currentCodes": [
            "EXTR6562A"
          ],
          "previousLat": 39.513028,
          "previousLon": -6.103444,
          "currentLat": 39.513028,
          "currentLon": -6.103444
        },
        {
          "id": 2446,
          "operador": "VODAFONE ESPAÑA S.A.",
          "provincia": "Girona",
          "direccion": "Sant Joan les Fonts",
          "fromDeclared": false,
          "toDeclared": true,
          "fromMatched": true,
          "toMatched": true,
          "previousBands": [
            "B20",
            "G09"
          ],
          "currentBands": [
            "B20",
            "G09",
            "N28",
            "N78"
          ],
          "addedBands": [
            "N28",
            "N78"
          ],
          "removedBands": [],
          "previousCodes": [
            "053232",
            "53232"
          ],
          "currentCodes": [
            "053232",
            "53232"
          ],
          "previousLat": 42.200053,
          "previousLon": 2.53575,
          "currentLat": 42.200053,
          "currentLon": 2.53575
        },
        {
          "id": 2465,
          "operador": "VODAFONE ESPAÑA S.A.",
          "provincia": "Girona",
          "direccion": "Peralada",
          "fromDeclared": false,
          "toDeclared": true,
          "fromMatched": true,
          "toMatched": true,
          "previousBands": [
            "B20",
            "B3",
            "G09"
          ],
          "currentBands": [
            "B20",
            "B3",
            "G09",
            "N28",
            "N78"
          ],
          "addedBands": [
            "N28",
            "N78"
          ],
          "removedBands": [],
          "previousCodes": [
            "018611",
            "18611"
          ],
          "currentCodes": [
            "018611",
            "18611"
          ],
          "previousLat": 42.309267,
          "previousLon": 3.010544,
          "currentLat": 42.309267,
          "currentLon": 3.010544
        },
        {
          "id": 2470,
          "operador": "VODAFONE ESPAÑA S.A.",
          "provincia": "Girona",
          "direccion": "Alp",
          "fromDeclared": false,
          "toDeclared": true,
          "fromMatched": false,
          "toMatched": true,
          "previousBands": [],
          "currentBands": [
            "N28",
            "N78"
          ],
          "addedBands": [
            "N28",
            "N78"
          ],
          "removedBands": [],
          "previousCodes": [],
          "currentCodes": [
            "4764"
          ],
          "previousLat": null,
          "previousLon": null,
          "currentLat": 42.346586,
          "currentLon": 1.958314
        },
        {
          "id": 2944,
          "operador": "TELEFÓNICA MÓVILES ESPAÑA, S.A.",
          "provincia": "Guadalajara",
          "direccion": "Mazarete",
          "fromDeclared": false,
          "toDeclared": true,
          "fromMatched": true,
          "toMatched": true,
          "previousBands": [
            "B20",
            "B3",
            "G09"
          ],
          "currentBands": [
            "B20",
            "B3",
            "G09",
            "N28",
            "N78+"
          ],
          "addedBands": [
            "N28",
            "N78+"
          ],
          "removedBands": [],
          "previousCodes": [
            "1900007"
          ],
          "currentCodes": [
            "1900007"
          ],
          "previousLat": 40.978011,
          "previousLon": -2.185108,
          "currentLat": 40.978011,
          "currentLon": -2.185108
        },
        {
          "id": 3309,
          "operador": "TELEFÓNICA MÓVILES ESPAÑA, S.A.",
          "provincia": "Jaén",
          "direccion": "Pozo Alcón",
          "fromDeclared": true,
          "toDeclared": true,
          "fromMatched": true,
          "toMatched": true,
          "previousBands": [
            "B20",
            "B8",
            "G09",
            "N28"
          ],
          "currentBands": [
            "B20",
            "B8",
            "G09",
            "N28",
            "N78+"
          ],
          "addedBands": [
            "N78+"
          ],
          "removedBands": [],
          "previousCodes": [
            "2300188"
          ],
          "currentCodes": [
            "2300188"
          ],
          "previousLat": 37.672267,
          "previousLon": -2.975417,
          "currentLat": 37.672267,
          "currentLon": -2.975417
        },
        {
          "id": 3409,
          "operador": "ORANGE ESPAGNE S.A.",
          "provincia": "León",
          "direccion": "Valverde de la Virgen",
          "fromDeclared": true,
          "toDeclared": true,
          "fromMatched": true,
          "toMatched": true,
          "previousBands": [
            "B1",
            "B20",
            "B3",
            "B7",
            "G09",
            "N28",
            "N78",
            "U21"
          ],
          "currentBands": [
            "B1",
            "B20",
            "B3",
            "B7",
            "G09",
            "N28",
            "N78"
          ],
          "addedBands": [],
          "removedBands": [
            "U21"
          ],
          "previousCodes": [
            "CYLR1672A"
          ],
          "currentCodes": [
            "CYLR1672A"
          ],
          "previousLat": 42.577583,
          "previousLon": -5.640333,
          "currentLat": 42.577583,
          "currentLon": -5.640333
        },
        {
          "id": 3411,
          "operador": "ORANGE ESPAGNE S.A.",
          "provincia": "León",
          "direccion": "Valverde de la Virgen",
          "fromDeclared": true,
          "toDeclared": true,
          "fromMatched": true,
          "toMatched": true,
          "previousBands": [
            "B20",
            "B3",
            "G09",
            "N28",
            "N78",
            "U21"
          ],
          "currentBands": [
            "B1",
            "B20",
            "B3",
            "G09",
            "N28",
            "N78"
          ],
          "addedBands": [
            "B1"
          ],
          "removedBands": [
            "U21"
          ],
          "previousCodes": [
            "CYLR1673B"
          ],
          "currentCodes": [
            "CYLR1673B"
          ],
          "previousLat": 42.55425,
          "previousLon": -5.707333,
          "currentLat": 42.55425,
          "currentLon": -5.707333
        },
        {
          "id": 3419,
          "operador": "ORANGE ESPAGNE S.A.",
          "provincia": "León",
          "direccion": "Cacabelos",
          "fromDeclared": true,
          "toDeclared": true,
          "fromMatched": true,
          "toMatched": true,
          "previousBands": [
            "B1",
            "B20",
            "B3",
            "B7",
            "G09",
            "N28",
            "N78",
            "U21"
          ],
          "currentBands": [
            "B1",
            "B20",
            "B3",
            "B7",
            "G09",
            "N28",
            "N78"
          ],
          "addedBands": [],
          "removedBands": [
            "U21"
          ],
          "previousCodes": [
            "CYLR0241B"
          ],
          "currentCodes": [
            "CYLR0241B"
          ],
          "previousLat": 42.596861,
          "previousLon": -6.715278,
          "currentLat": 42.596861,
          "currentLon": -6.715278
        },
        {
          "id": 3440,
          "operador": "ORANGE ESPAGNE S.A.",
          "provincia": "León",
          "direccion": "Chozas de Abajo",
          "fromDeclared": true,
          "toDeclared": true,
          "fromMatched": true,
          "toMatched": true,
          "previousBands": [
            "B20",
            "G09",
            "N28",
            "N78",
            "U21"
          ],
          "currentBands": [
            "B1",
            "B20",
            "G09",
            "N28",
            "N78"
          ],
          "addedBands": [
            "B1"
          ],
          "removedBands": [
            "U21"
          ],
          "previousCodes": [
            "CYLR0441B"
          ],
          "currentCodes": [
            "CYLR0441B"
          ],
          "previousLat": 42.50875,
          "previousLon": -5.689778,
          "currentLat": 42.50875,
          "currentLon": -5.689778
        },
        {
          "id": 3471,
          "operador": "ORANGE ESPAGNE S.A.",
          "provincia": "León",
          "direccion": "Toral de los Vados",
          "fromDeclared": true,
          "toDeclared": true,
          "fromMatched": true,
          "toMatched": true,
          "previousBands": [
            "B20",
            "B3",
            "G09",
            "N28",
            "N78",
            "U21"
          ],
          "currentBands": [
            "B1",
            "B20",
            "B3",
            "G09",
            "N28",
            "N78"
          ],
          "addedBands": [
            "B1"
          ],
          "removedBands": [
            "U21"
          ],
          "previousCodes": [
            "CYLR1693A"
          ],
          "currentCodes": [
            "CYLR1693A"
          ],
          "previousLat": 42.547194,
          "previousLon": -6.781528,
          "currentLat": 42.547194,
          "currentLon": -6.781528
        },
        {
          "id": 3488,
          "operador": "ORANGE ESPAGNE S.A.",
          "provincia": "León",
          "direccion": "Congosto",
          "fromDeclared": true,
          "toDeclared": true,
          "fromMatched": true,
          "toMatched": true,
          "previousBands": [
            "B20",
            "G09",
            "N28",
            "N78",
            "U21"
          ],
          "currentBands": [
            "B1",
            "B20",
            "G09",
            "N28",
            "N78"
          ],
          "addedBands": [
            "B1"
          ],
          "removedBands": [
            "U21"
          ],
          "previousCodes": [
            "CYLR0541B"
          ],
          "currentCodes": [
            "CYLR0541B"
          ],
          "previousLat": 42.615778,
          "previousLon": -6.516981,
          "currentLat": 42.615778,
          "currentLon": -6.516981
        },
        {
          "id": 3509,
          "operador": "ORANGE ESPAGNE S.A.",
          "provincia": "León",
          "direccion": "Santa Elena de Jamuz",
          "fromDeclared": true,
          "toDeclared": true,
          "fromMatched": true,
          "toMatched": true,
          "previousBands": [
            "B1",
            "B20",
            "B3",
            "G09",
            "N28",
            "N78",
            "U21"
          ],
          "currentBands": [
            "B1",
            "B20",
            "B3",
            "G09",
            "N28",
            "N78"
          ],
          "addedBands": [],
          "removedBands": [
            "U21"
          ],
          "previousCodes": [
            "CYLR0651B"
          ],
          "currentCodes": [
            "CYLR0651B"
          ],
          "previousLat": 42.269417,
          "previousLon": -5.890111,
          "currentLat": 42.269417,
          "currentLon": -5.890111
        },
        {
          "id": 4413,
          "operador": "TELEFÓNICA MÓVILES ESPAÑA, S.A.",
          "provincia": "Navarra",
          "direccion": "Cintruénigo",
          "fromDeclared": true,
          "toDeclared": true,
          "fromMatched": true,
          "toMatched": true,
          "previousBands": [
            "B1",
            "B20",
            "B3",
            "B7",
            "G09",
            "N28",
            "N78+",
            "U21"
          ],
          "currentBands": [
            "B1",
            "B20",
            "B3",
            "B7",
            "B8",
            "G09",
            "N28",
            "N78+",
            "U21"
          ],
          "addedBands": [
            "B8"
          ],
          "removedBands": [],
          "previousCodes": [
            "3100079"
          ],
          "currentCodes": [
            "3100079"
          ],
          "previousLat": 42.072708,
          "previousLon": -1.810047,
          "currentLat": 42.072833,
          "currentLon": -1.810028
        },
        {
          "id": 4553,
          "operador": "TELEFÓNICA MÓVILES ESPAÑA, S.A.",
          "provincia": "Navarra",
          "direccion": "Roncal/Erronkari",
          "fromDeclared": false,
          "toDeclared": true,
          "fromMatched": true,
          "toMatched": true,
          "previousBands": [
            "B20",
            "G09"
          ],
          "currentBands": [
            "B20",
            "G09",
            "N28",
            "N78+"
          ],
          "addedBands": [
            "N28",
            "N78+"
          ],
          "removedBands": [],
          "previousCodes": [
            "3100230"
          ],
          "currentCodes": [
            "3100230"
          ],
          "previousLat": 42.796433,
          "previousLon": -0.964044,
          "currentLat": 42.796433,
          "currentLon": -0.964044
        },
        {
          "id": 4558,
          "operador": "TELEFÓNICA MÓVILES ESPAÑA, S.A.",
          "provincia": "Navarra",
          "direccion": "Esteribar",
          "fromDeclared": false,
          "toDeclared": true,
          "fromMatched": true,
          "toMatched": true,
          "previousBands": [
            "B20",
            "B8",
            "G09",
            "U21"
          ],
          "currentBands": [
            "B20",
            "B8",
            "G09",
            "N28",
            "N78+",
            "U21"
          ],
          "addedBands": [
            "N28",
            "N78+"
          ],
          "removedBands": [],
          "previousCodes": [
            "3100084"
          ],
          "currentCodes": [
            "3100084"
          ],
          "previousLat": 42.916994,
          "previousLon": -1.503097,
          "currentLat": 42.916994,
          "currentLon": -1.503097
        },
        {
          "id": 4733,
          "operador": "ORANGE ESPAGNE S.A.",
          "provincia": "Ourense",
          "direccion": "Piñor",
          "fromDeclared": true,
          "toDeclared": true,
          "fromMatched": true,
          "toMatched": true,
          "previousBands": [
            "B20",
            "B3",
            "G09",
            "N28",
            "N78",
            "U21"
          ],
          "currentBands": [
            "B1",
            "B20",
            "B3",
            "G09",
            "N28",
            "N78"
          ],
          "addedBands": [
            "B1"
          ],
          "removedBands": [
            "U21"
          ],
          "previousCodes": [
            "GALR9300A"
          ],
          "currentCodes": [
            "GALR9300A"
          ],
          "previousLat": 42.497247,
          "previousLon": -8.016294,
          "currentLat": 42.497247,
          "currentLon": -8.016294
        },
        {
          "id": 4896,
          "operador": "ORANGE ESPAGNE S.A.",
          "provincia": "Asturias",
          "direccion": "Candamo",
          "fromDeclared": true,
          "toDeclared": true,
          "fromMatched": true,
          "toMatched": true,
          "previousBands": [
            "B1",
            "B20",
            "B3",
            "G09",
            "N28",
            "N78",
            "U21"
          ],
          "currentBands": [
            "B1",
            "B20",
            "B3",
            "G09",
            "N28",
            "N78"
          ],
          "addedBands": [],
          "removedBands": [
            "U21"
          ],
          "previousCodes": [
            "ASTR1411A"
          ],
          "currentCodes": [
            "ASTR1411A"
          ],
          "previousLat": 43.433803,
          "previousLon": -6.056947,
          "currentLat": 43.433803,
          "currentLon": -6.056947
        },
        {
          "id": 4913,
          "operador": "ORANGE ESPAGNE S.A.",
          "provincia": "Asturias",
          "direccion": "Regueras, Las",
          "fromDeclared": true,
          "toDeclared": true,
          "fromMatched": true,
          "toMatched": true,
          "previousBands": [
            "B1",
            "B20",
            "B3",
            "G09",
            "N28",
            "N78",
            "U21"
          ],
          "currentBands": [
            "B1",
            "B20",
            "B3",
            "G09",
            "N28",
            "N78"
          ],
          "addedBands": [],
          "removedBands": [
            "U21"
          ],
          "previousCodes": [
            "ASTR7304A"
          ],
          "currentCodes": [
            "ASTR7304A"
          ],
          "previousLat": 43.400722,
          "previousLon": -6.021728,
          "currentLat": 43.400722,
          "currentLon": -6.021728
        },
        {
          "id": 5918,
          "operador": "VODAFONE ESPAÑA S.A.",
          "provincia": "Soria",
          "direccion": "Fuentelmonge",
          "fromDeclared": true,
          "toDeclared": true,
          "fromMatched": true,
          "toMatched": true,
          "previousBands": [
            "B20",
            "G09",
            "N78"
          ],
          "currentBands": [
            "B20",
            "G09",
            "N28",
            "N78"
          ],
          "addedBands": [
            "N28"
          ],
          "removedBands": [],
          "previousCodes": [
            "211658"
          ],
          "currentCodes": [
            "211658"
          ],
          "previousLat": 41.42125,
          "previousLon": -2.184861,
          "currentLat": 41.42125,
          "currentLon": -2.184861
        },
        {
          "id": 5920,
          "operador": "VODAFONE ESPAÑA S.A.",
          "provincia": "Soria",
          "direccion": "Almazán",
          "fromDeclared": true,
          "toDeclared": true,
          "fromMatched": true,
          "toMatched": true,
          "previousBands": [
            "N28",
            "N78"
          ],
          "currentBands": [
            "B20",
            "G09",
            "N28",
            "N78"
          ],
          "addedBands": [
            "B20",
            "G09"
          ],
          "removedBands": [],
          "previousCodes": [
            "211660"
          ],
          "currentCodes": [
            "211660"
          ],
          "previousLat": 41.465519,
          "previousLon": -2.545306,
          "currentLat": 41.465519,
          "currentLon": -2.545306
        },
        {
          "id": 6280,
          "operador": "TELEFÓNICA MÓVILES ESPAÑA, S.A.",
          "provincia": "Teruel",
          "direccion": "Caminreal",
          "fromDeclared": true,
          "toDeclared": true,
          "fromMatched": true,
          "toMatched": true,
          "previousBands": [
            "B20",
            "B8",
            "G09",
            "N28"
          ],
          "currentBands": [
            "B20",
            "B8",
            "G09",
            "N28",
            "N78+"
          ],
          "addedBands": [
            "N78+"
          ],
          "removedBands": [],
          "previousCodes": [
            "4400077"
          ],
          "currentCodes": [
            "4400077"
          ],
          "previousLat": 40.838419,
          "previousLon": -1.321542,
          "currentLat": 40.838419,
          "currentLon": -1.321542
        },
        {
          "id": 6983,
          "operador": "ORANGE ESPAGNE S.A.",
          "provincia": "Zamora",
          "direccion": "Galende",
          "fromDeclared": true,
          "toDeclared": true,
          "fromMatched": true,
          "toMatched": true,
          "previousBands": [
            "B1",
            "B20",
            "B3",
            "G09",
            "N28",
            "N78",
            "U21"
          ],
          "currentBands": [
            "B1",
            "B20",
            "B3",
            "G09",
            "N28",
            "N78"
          ],
          "addedBands": [],
          "removedBands": [
            "U21"
          ],
          "previousCodes": [
            "CYLR7030A"
          ],
          "currentCodes": [
            "CYLR7030A"
          ],
          "previousLat": 42.131772,
          "previousLon": -6.726156,
          "currentLat": 42.131772,
          "currentLon": -6.726156
        },
        {
          "id": 7195,
          "operador": "TELEFÓNICA MÓVILES ESPAÑA, S.A.",
          "provincia": "Zaragoza",
          "direccion": "Urrea de Jalón",
          "fromDeclared": true,
          "toDeclared": true,
          "fromMatched": true,
          "toMatched": true,
          "previousBands": [
            "G09",
            "N28+"
          ],
          "currentBands": [
            "B20",
            "G09",
            "N28+"
          ],
          "addedBands": [
            "B20"
          ],
          "removedBands": [],
          "previousCodes": [
            "5000950"
          ],
          "currentCodes": [
            "5000950"
          ],
          "previousLat": 41.667194,
          "previousLon": -1.238653,
          "currentLat": 41.667194,
          "currentLon": -1.238653
        },
        {
          "id": 7341,
          "operador": "TELEFÓNICA MÓVILES ESPAÑA, S.A.",
          "provincia": "Araba/Álava",
          "direccion": "01_01047_000156",
          "fromDeclared": false,
          "toDeclared": true,
          "fromMatched": true,
          "toMatched": true,
          "previousBands": [
            "B20",
            "G09"
          ],
          "currentBands": [
            "B20",
            "G09",
            "N78+"
          ],
          "addedBands": [
            "N78+"
          ],
          "removedBands": [],
          "previousCodes": [
            "0100053"
          ],
          "currentCodes": [
            "0100053"
          ],
          "previousLat": 42.714108,
          "previousLon": -2.911056,
          "currentLat": 42.714108,
          "currentLon": -2.911056
        },
        {
          "id": 7874,
          "operador": "TELEFÓNICA MÓVILES ESPAÑA, S.A.",
          "provincia": "Girona",
          "direccion": "17_17056_000167",
          "fromDeclared": true,
          "toDeclared": true,
          "fromMatched": true,
          "toMatched": true,
          "previousBands": [
            "B1",
            "B20",
            "B3",
            "B7",
            "G09",
            "N78+"
          ],
          "currentBands": [
            "B1",
            "B20",
            "B3",
            "B7",
            "G09",
            "N28",
            "N78+"
          ],
          "addedBands": [
            "N28"
          ],
          "removedBands": [],
          "previousCodes": [
            "1700586"
          ],
          "currentCodes": [
            "1700586"
          ],
          "previousLat": 42.105469,
          "previousLon": 2.840419,
          "currentLat": 42.105469,
          "currentLon": 2.840419
        },
        {
          "id": 7993,
          "operador": "TELEFÓNICA MÓVILES ESPAÑA, S.A.",
          "provincia": "Granada",
          "direccion": "18_18134_001009",
          "fromDeclared": true,
          "toDeclared": true,
          "fromMatched": true,
          "toMatched": true,
          "previousBands": [
            "B20",
            "B3",
            "G09",
            "N28",
            "N78+"
          ],
          "currentBands": [
            "B1",
            "B20",
            "B3",
            "B7",
            "G09",
            "N28",
            "N78+"
          ],
          "addedBands": [
            "B1",
            "B7"
          ],
          "removedBands": [],
          "previousCodes": [
            "1801193"
          ],
          "currentCodes": [
            "1801193"
          ],
          "previousLat": 37.127444,
          "previousLon": -3.555919,
          "currentLat": 37.127444,
          "currentLon": -3.555919
        },
        {
          "id": 8552,
          "operador": "TELEFÓNICA MÓVILES ESPAÑA, S.A.",
          "provincia": "Ourense",
          "direccion": "32_32091_000428",
          "fromDeclared": true,
          "toDeclared": true,
          "fromMatched": true,
          "toMatched": true,
          "previousBands": [
            "B20",
            "B8",
            "G09",
            "N28"
          ],
          "currentBands": [
            "B20",
            "B8",
            "G09",
            "N28",
            "N78+"
          ],
          "addedBands": [
            "N78+"
          ],
          "removedBands": [],
          "previousCodes": [
            "3200029"
          ],
          "currentCodes": [
            "3200029"
          ],
          "previousLat": 41.920531,
          "previousLon": -7.207081,
          "currentLat": 41.920531,
          "currentLon": -7.207081
        }
      ]
    },
    {
      "generatedAt": "2026-05-14T07:26:36.986Z",
      "previousSnapshotAt": "2026-05-13T07:32:52.113Z",
      "summary": {
        "totalChanges": 0,
        "gained": 0,
        "lost": 0,
        "totalBandChangeSites": 0,
        "totalBandsAdded": 0,
        "totalBandsRemoved": 0
      },
      "changes": [],
      "bandChanges": []
    },
    {
      "generatedAt": "2026-05-13T07:32:52.113Z",
      "previousSnapshotAt": "2026-05-12T07:21:02.639Z",
      "summary": {
        "totalChanges": 0,
        "gained": 0,
        "lost": 0,
        "totalBandChangeSites": 0,
        "totalBandsAdded": 0,
        "totalBandsRemoved": 0
      },
      "changes": [],
      "bandChanges": []
    },
    {
      "generatedAt": "2026-05-12T07:21:02.639Z",
      "previousSnapshotAt": "2026-05-11T07:57:27.935Z",
      "summary": {
        "totalChanges": 2,
        "gained": 2,
        "lost": 0,
        "totalBandChangeSites": 5,
        "totalBandsAdded": 17,
        "totalBandsRemoved": 0
      },
      "changes": [
        {
          "id": 1321,
          "operador": "AVATEL TELECOM S.A.",
          "provincia": "Cáceres",
          "direccion": "Trujillo",
          "change": "declara_ahora",
          "fromDeclared": false,
          "toDeclared": true,
          "previousBands": [],
          "currentBands": [
            "N78",
            "B1",
            "B3",
            "B20",
            "N28",
            "U21",
            "G09"
          ],
          "previousCodes": [],
          "currentCodes": [
            "EXTR6206F"
          ],
          "previousLat": null,
          "previousLon": null,
          "currentLat": 39.456222,
          "currentLon": -5.884056
        },
        {
          "id": 1441,
          "operador": "AVATEL TELECOM S.A.",
          "provincia": "Cáceres",
          "direccion": "Trujillo",
          "change": "declara_ahora",
          "fromDeclared": false,
          "toDeclared": true,
          "previousBands": [],
          "currentBands": [
            "N78",
            "B1",
            "B3",
            "B20",
            "N28",
            "U21",
            "G09"
          ],
          "previousCodes": [],
          "currentCodes": [
            "EXTR6206F"
          ],
          "previousLat": null,
          "previousLon": null,
          "currentLat": 39.456222,
          "currentLon": -5.884056
        }
      ],
      "bandChanges": [
        {
          "id": 1321,
          "operador": "AVATEL TELECOM S.A.",
          "provincia": "Cáceres",
          "direccion": "Trujillo",
          "fromDeclared": false,
          "toDeclared": true,
          "fromMatched": false,
          "toMatched": true,
          "previousBands": [],
          "currentBands": [
            "B1",
            "B20",
            "B3",
            "G09",
            "N28",
            "N78",
            "U21"
          ],
          "addedBands": [
            "B1",
            "B20",
            "B3",
            "G09",
            "N28",
            "N78",
            "U21"
          ],
          "removedBands": [],
          "previousCodes": [],
          "currentCodes": [
            "EXTR6206F"
          ],
          "previousLat": null,
          "previousLon": null,
          "currentLat": 39.456222,
          "currentLon": -5.884056
        },
        {
          "id": 1441,
          "operador": "AVATEL TELECOM S.A.",
          "provincia": "Cáceres",
          "direccion": "Trujillo",
          "fromDeclared": false,
          "toDeclared": true,
          "fromMatched": false,
          "toMatched": true,
          "previousBands": [],
          "currentBands": [
            "B1",
            "B20",
            "B3",
            "G09",
            "N28",
            "N78",
            "U21"
          ],
          "addedBands": [
            "B1",
            "B20",
            "B3",
            "G09",
            "N28",
            "N78",
            "U21"
          ],
          "removedBands": [],
          "previousCodes": [],
          "currentCodes": [
            "EXTR6206F"
          ],
          "previousLat": null,
          "previousLon": null,
          "currentLat": 39.456222,
          "currentLon": -5.884056
        },
        {
          "id": 2283,
          "operador": "TELEFÓNICA MÓVILES ESPAÑA, S.A.",
          "provincia": "Cuenca",
          "direccion": "Beteta",
          "fromDeclared": true,
          "toDeclared": true,
          "fromMatched": true,
          "toMatched": true,
          "previousBands": [
            "B20",
            "N28+",
            "U21"
          ],
          "currentBands": [
            "B20",
            "G09",
            "N28+",
            "U21"
          ],
          "addedBands": [
            "G09"
          ],
          "removedBands": [],
          "previousCodes": [
            "1600112"
          ],
          "currentCodes": [
            "1600112"
          ],
          "previousLat": 40.509494,
          "previousLon": -2.128261,
          "currentLat": 40.509494,
          "currentLon": -2.128261
        },
        {
          "id": 3278,
          "operador": "TELEFÓNICA MÓVILES ESPAÑA, S.A.",
          "provincia": "Jaén",
          "direccion": "Santo Tomé",
          "fromDeclared": true,
          "toDeclared": true,
          "fromMatched": true,
          "toMatched": true,
          "previousBands": [
            "B20",
            "B3",
            "B8",
            "G09",
            "N28",
            "N78+",
            "U21"
          ],
          "currentBands": [
            "B1",
            "B20",
            "B3",
            "B8",
            "G09",
            "N28",
            "N78+",
            "U21"
          ],
          "addedBands": [
            "B1"
          ],
          "removedBands": [],
          "previousCodes": [
            "2300120"
          ],
          "currentCodes": [
            "2300120"
          ],
          "previousLat": 38.015072,
          "previousLon": -3.113561,
          "currentLat": 38.015072,
          "currentLon": -3.113561
        },
        {
          "id": 8907,
          "operador": "ORANGE ESPAGNE S.A.",
          "provincia": "Cantabria",
          "direccion": "39_39021_000708",
          "fromDeclared": true,
          "toDeclared": true,
          "fromMatched": true,
          "toMatched": true,
          "previousBands": [
            "B20",
            "B3",
            "G09",
            "N28",
            "N78"
          ],
          "currentBands": [
            "B1",
            "B20",
            "B3",
            "G09",
            "N28",
            "N78"
          ],
          "addedBands": [
            "B1"
          ],
          "removedBands": [],
          "previousCodes": [
            "CTBR7605B"
          ],
          "currentCodes": [
            "CTBR7605B"
          ],
          "previousLat": 43.237881,
          "previousLon": -4.071839,
          "currentLat": 43.237881,
          "currentLon": -4.071839
        }
      ]
    },
    {
      "generatedAt": "2026-05-11T07:57:27.935Z",
      "previousSnapshotAt": "2026-05-09T12:30:07.955Z",
      "summary": {
        "totalChanges": 0,
        "gained": 0,
        "lost": 0,
        "totalBandChangeSites": 0,
        "totalBandsAdded": 0,
        "totalBandsRemoved": 0
      },
      "changes": [],
      "bandChanges": []
    },
    {
      "generatedAt": "2026-05-09T12:30:07.955Z",
      "previousSnapshotAt": "2026-05-09T06:30:39.700Z",
      "summary": {
        "totalChanges": 0,
        "gained": 0,
        "lost": 0,
        "totalBandChangeSites": 0,
        "totalBandsAdded": 0,
        "totalBandsRemoved": 0
      },
      "changes": [],
      "bandChanges": []
    },
    {
      "generatedAt": "2026-05-09T06:30:39.700Z",
      "previousSnapshotAt": "2026-05-08T06:12:57.410Z",
      "summary": {
        "totalChanges": 1,
        "gained": 1,
        "lost": 0,
        "totalBandChangeSites": 3,
        "totalBandsAdded": 6,
        "totalBandsRemoved": 0
      },
      "changes": [
        {
          "id": 1658,
          "operador": "TELEFÓNICA MÓVILES ESPAÑA, S.A.",
          "provincia": "Castellón/Castelló",
          "direccion": "Cabanes",
          "change": "declara_ahora",
          "fromDeclared": false,
          "toDeclared": true,
          "previousBands": [
            "G09"
          ],
          "currentBands": [
            "B1",
            "B3",
            "B20",
            "N28",
            "G09"
          ],
          "previousCodes": [
            "1200106"
          ],
          "currentCodes": [
            "1200106"
          ],
          "previousLat": 40.134961,
          "previousLon": 0.152017,
          "currentLat": 40.134961,
          "currentLon": 0.152017
        }
      ],
      "bandChanges": [
        {
          "id": 1658,
          "operador": "TELEFÓNICA MÓVILES ESPAÑA, S.A.",
          "provincia": "Castellón/Castelló",
          "direccion": "Cabanes",
          "fromDeclared": false,
          "toDeclared": true,
          "fromMatched": true,
          "toMatched": true,
          "previousBands": [
            "G09"
          ],
          "currentBands": [
            "B1",
            "B20",
            "B3",
            "G09",
            "N28"
          ],
          "addedBands": [
            "B1",
            "B20",
            "B3",
            "N28"
          ],
          "removedBands": [],
          "previousCodes": [
            "1200106"
          ],
          "currentCodes": [
            "1200106"
          ],
          "previousLat": 40.134961,
          "previousLon": 0.152017,
          "currentLat": 40.134961,
          "currentLon": 0.152017
        },
        {
          "id": 3044,
          "operador": "TELEFÓNICA MÓVILES ESPAÑA, S.A.",
          "provincia": "Huelva",
          "direccion": "Lucena del Puerto",
          "fromDeclared": true,
          "toDeclared": true,
          "fromMatched": true,
          "toMatched": true,
          "previousBands": [
            "B1",
            "B20",
            "B3",
            "B8",
            "G09",
            "N28",
            "N78+"
          ],
          "currentBands": [
            "B1",
            "B20",
            "B3",
            "B7",
            "B8",
            "G09",
            "N28",
            "N78+"
          ],
          "addedBands": [
            "B7"
          ],
          "removedBands": [],
          "previousCodes": [
            "2100665"
          ],
          "currentCodes": [
            "2100665"
          ],
          "previousLat": 37.23005,
          "previousLon": -6.745742,
          "currentLat": 37.23005,
          "currentLon": -6.745742
        },
        {
          "id": 8877,
          "operador": "TELEFÓNICA MÓVILES ESPAÑA, S.A.",
          "provincia": "Santa Cruz de Tenerife",
          "direccion": "38_38012_000993",
          "fromDeclared": true,
          "toDeclared": true,
          "fromMatched": true,
          "toMatched": true,
          "previousBands": [
            "G09",
            "N28",
            "U21"
          ],
          "currentBands": [
            "G09",
            "N28",
            "N78+",
            "U21"
          ],
          "addedBands": [
            "N78+"
          ],
          "removedBands": [],
          "previousCodes": [
            "3800133"
          ],
          "currentCodes": [
            "3800133"
          ],
          "previousLat": 28.237703,
          "previousLon": -16.442467,
          "currentLat": 28.237703,
          "currentLon": -16.442467
        }
      ]
    },
    {
      "generatedAt": "2026-05-08T06:12:57.410Z",
      "previousSnapshotAt": "2026-05-07T07:22:18.126Z",
      "summary": {
        "totalChanges": 2,
        "gained": 2,
        "lost": 0,
        "totalBandChangeSites": 11,
        "totalBandsAdded": 15,
        "totalBandsRemoved": 5
      },
      "changes": [
        {
          "id": 3104,
          "operador": "TELEFÓNICA MÓVILES ESPAÑA, S.A.",
          "provincia": "Huesca",
          "direccion": "Peralta de Calasanz",
          "change": "declara_ahora",
          "fromDeclared": false,
          "toDeclared": true,
          "previousBands": [
            "B20",
            "U21",
            "G09"
          ],
          "currentBands": [
            "N78+",
            "B20",
            "N28",
            "U21",
            "G09"
          ],
          "previousCodes": [
            "2200284"
          ],
          "currentCodes": [
            "2200284"
          ],
          "previousLat": 41.994517,
          "previousLon": 0.383864,
          "currentLat": 41.994517,
          "currentLon": 0.383864
        },
        {
          "id": 8087,
          "operador": "TELEFÓNICA MÓVILES ESPAÑA, S.A.",
          "provincia": "Huesca",
          "direccion": "22_22099_000230",
          "change": "declara_ahora",
          "fromDeclared": false,
          "toDeclared": true,
          "previousBands": [],
          "currentBands": [
            "N78+",
            "B3",
            "B8",
            "B20",
            "N28",
            "G09"
          ],
          "previousCodes": [],
          "currentCodes": [
            "2200278"
          ],
          "previousLat": null,
          "previousLon": null,
          "currentLat": 41.792206,
          "currentLon": 0.268867
        }
      ],
      "bandChanges": [
        {
          "id": 2373,
          "operador": "VODAFONE ESPAÑA S.A.",
          "provincia": "Girona",
          "direccion": "Espolla",
          "fromDeclared": true,
          "toDeclared": true,
          "fromMatched": true,
          "toMatched": true,
          "previousBands": [
            "B20",
            "N28+"
          ],
          "currentBands": [
            "B20",
            "G09",
            "N28+"
          ],
          "addedBands": [
            "G09"
          ],
          "removedBands": [],
          "previousCodes": [
            "98939"
          ],
          "currentCodes": [
            "098939",
            "98939"
          ],
          "previousLat": 42.396944,
          "previousLon": 3.006028,
          "currentLat": 42.396944,
          "currentLon": 3.006028
        },
        {
          "id": 3104,
          "operador": "TELEFÓNICA MÓVILES ESPAÑA, S.A.",
          "provincia": "Huesca",
          "direccion": "Peralta de Calasanz",
          "fromDeclared": false,
          "toDeclared": true,
          "fromMatched": true,
          "toMatched": true,
          "previousBands": [
            "B20",
            "G09",
            "U21"
          ],
          "currentBands": [
            "B20",
            "G09",
            "N28",
            "N78+",
            "U21"
          ],
          "addedBands": [
            "N28",
            "N78+"
          ],
          "removedBands": [],
          "previousCodes": [
            "2200284"
          ],
          "currentCodes": [
            "2200284"
          ],
          "previousLat": 41.994517,
          "previousLon": 0.383864,
          "currentLat": 41.994517,
          "currentLon": 0.383864
        },
        {
          "id": 3465,
          "operador": "ORANGE ESPAGNE S.A.",
          "provincia": "León",
          "direccion": "Onzonilla",
          "fromDeclared": true,
          "toDeclared": true,
          "fromMatched": true,
          "toMatched": true,
          "previousBands": [
            "B20",
            "B3",
            "G09",
            "N28",
            "N78",
            "U21"
          ],
          "currentBands": [
            "B1",
            "B20",
            "B3",
            "G09",
            "N28",
            "N78"
          ],
          "addedBands": [
            "B1"
          ],
          "removedBands": [
            "U21"
          ],
          "previousCodes": [
            "CYLR0402A"
          ],
          "currentCodes": [
            "CYLR0402A"
          ],
          "previousLat": 42.544139,
          "previousLon": -5.58125,
          "currentLat": 42.544139,
          "currentLon": -5.58125
        },
        {
          "id": 3540,
          "operador": "ORANGE ESPAGNE S.A.",
          "provincia": "León",
          "direccion": "Riego de la Vega",
          "fromDeclared": true,
          "toDeclared": true,
          "fromMatched": true,
          "toMatched": true,
          "previousBands": [
            "B1",
            "B20",
            "B3",
            "G09",
            "N28",
            "N78",
            "U21"
          ],
          "currentBands": [
            "B1",
            "B20",
            "B3",
            "G09",
            "N28",
            "N78"
          ],
          "addedBands": [],
          "removedBands": [
            "U21"
          ],
          "previousCodes": [
            "CYLR0851B"
          ],
          "currentCodes": [
            "CYLR0851B"
          ],
          "previousLat": 42.392861,
          "previousLon": -5.985472,
          "currentLat": 42.392861,
          "currentLon": -5.985472
        },
        {
          "id": 4805,
          "operador": "ORANGE ESPAGNE S.A.",
          "provincia": "Asturias",
          "direccion": "Grado",
          "fromDeclared": true,
          "toDeclared": true,
          "fromMatched": true,
          "toMatched": true,
          "previousBands": [
            "B1",
            "B20",
            "B3",
            "G09",
            "N28",
            "N78",
            "U21"
          ],
          "currentBands": [
            "B1",
            "B20",
            "B3",
            "G09",
            "N28",
            "N78"
          ],
          "addedBands": [],
          "removedBands": [
            "U21"
          ],
          "previousCodes": [
            "ASTR7303A"
          ],
          "currentCodes": [
            "ASTR7303A"
          ],
          "previousLat": 43.369122,
          "previousLon": -5.991303,
          "currentLat": 43.369122,
          "currentLon": -5.991303
        },
        {
          "id": 4912,
          "operador": "ORANGE ESPAGNE S.A.",
          "provincia": "Asturias",
          "direccion": "Regueras, Las",
          "fromDeclared": true,
          "toDeclared": true,
          "fromMatched": true,
          "toMatched": true,
          "previousBands": [
            "B1",
            "B20",
            "B3",
            "G09",
            "N28",
            "N78",
            "U21"
          ],
          "currentBands": [
            "B1",
            "B20",
            "B3",
            "G09",
            "N28",
            "N78"
          ],
          "addedBands": [],
          "removedBands": [
            "U21"
          ],
          "previousCodes": [
            "ASTR1492A"
          ],
          "currentCodes": [
            "ASTR1492A"
          ],
          "previousLat": 43.383872,
          "previousLon": -5.945661,
          "currentLat": 43.383872,
          "currentLon": -5.945661
        },
        {
          "id": 5373,
          "operador": "ORANGE ESPAGNE S.A.",
          "provincia": "Salamanca",
          "direccion": "Galisancho",
          "fromDeclared": true,
          "toDeclared": true,
          "fromMatched": true,
          "toMatched": true,
          "previousBands": [
            "N28",
            "N78"
          ],
          "currentBands": [
            "B20",
            "G09",
            "N28",
            "N78"
          ],
          "addedBands": [
            "B20",
            "G09"
          ],
          "removedBands": [],
          "previousCodes": [
            "CYLR6005A"
          ],
          "currentCodes": [
            "CYLR6005A"
          ],
          "previousLat": 40.710278,
          "previousLon": -5.521961,
          "currentLat": 40.710261,
          "currentLon": -5.521986
        },
        {
          "id": 6263,
          "operador": "TELEFÓNICA MÓVILES ESPAÑA, S.A.",
          "provincia": "Teruel",
          "direccion": "Ejulve",
          "fromDeclared": true,
          "toDeclared": true,
          "fromMatched": true,
          "toMatched": true,
          "previousBands": [
            "N28",
            "N78+"
          ],
          "currentBands": [
            "B20",
            "G09",
            "N28",
            "N78+"
          ],
          "addedBands": [
            "B20",
            "G09"
          ],
          "removedBands": [],
          "previousCodes": [
            "4400316"
          ],
          "currentCodes": [
            "4400316"
          ],
          "previousLat": 40.775706,
          "previousLon": -0.550831,
          "currentLat": 40.775706,
          "currentLon": -0.550831
        },
        {
          "id": 6611,
          "operador": "TELEFÓNICA MÓVILES ESPAÑA, S.A.",
          "provincia": "Valencia/València",
          "direccion": "Higueruelas",
          "fromDeclared": true,
          "toDeclared": true,
          "fromMatched": true,
          "toMatched": true,
          "previousBands": [
            "B20",
            "G09",
            "N28+"
          ],
          "currentBands": [
            "B20",
            "B8",
            "G09",
            "N28+"
          ],
          "addedBands": [
            "B8"
          ],
          "removedBands": [],
          "previousCodes": [
            "4600628"
          ],
          "currentCodes": [
            "4600628"
          ],
          "previousLat": 39.782531,
          "previousLon": -0.859392,
          "currentLat": 39.782531,
          "currentLon": -0.859392
        },
        {
          "id": 7708,
          "operador": "ORANGE ESPAGNE S.A.",
          "provincia": "Córdoba",
          "direccion": "14_14040_000445",
          "fromDeclared": true,
          "toDeclared": true,
          "fromMatched": true,
          "toMatched": true,
          "previousBands": [
            "B1",
            "B20",
            "B3",
            "G09",
            "N28",
            "N78",
            "U21"
          ],
          "currentBands": [
            "B1",
            "B20",
            "B3",
            "G09",
            "N28",
            "N78"
          ],
          "addedBands": [],
          "removedBands": [
            "U21"
          ],
          "previousCodes": [
            "ANDR7257A"
          ],
          "currentCodes": [
            "ANDR7257A"
          ],
          "previousLat": 37.582889,
          "previousLon": -4.746389,
          "currentLat": 37.582889,
          "currentLon": -4.746389
        },
        {
          "id": 8087,
          "operador": "TELEFÓNICA MÓVILES ESPAÑA, S.A.",
          "provincia": "Huesca",
          "direccion": "22_22099_000230",
          "fromDeclared": false,
          "toDeclared": true,
          "fromMatched": false,
          "toMatched": true,
          "previousBands": [],
          "currentBands": [
            "B20",
            "B3",
            "B8",
            "G09",
            "N28",
            "N78+"
          ],
          "addedBands": [
            "B20",
            "B3",
            "B8",
            "G09",
            "N28",
            "N78+"
          ],
          "removedBands": [],
          "previousCodes": [],
          "currentCodes": [
            "2200278"
          ],
          "previousLat": null,
          "previousLon": null,
          "currentLat": 41.792206,
          "currentLon": 0.268867
        }
      ]
    },
    {
      "generatedAt": "2026-05-07T07:22:18.126Z",
      "previousSnapshotAt": "2026-05-06T07:13:11.475Z",
      "summary": {
        "totalChanges": 2,
        "gained": 2,
        "lost": 0,
        "totalBandChangeSites": 5,
        "totalBandsAdded": 5,
        "totalBandsRemoved": 3
      },
      "changes": [
        {
          "id": 6611,
          "operador": "TELEFÓNICA MÓVILES ESPAÑA, S.A.",
          "provincia": "Valencia/València",
          "direccion": "Higueruelas",
          "change": "declara_ahora",
          "fromDeclared": false,
          "toDeclared": true,
          "previousBands": [
            "B20",
            "G09"
          ],
          "currentBands": [
            "B20",
            "N28+",
            "G09"
          ],
          "previousCodes": [
            "4600628"
          ],
          "currentCodes": [
            "4600628"
          ],
          "previousLat": 39.782531,
          "previousLon": -0.859392,
          "currentLat": 39.782531,
          "currentLon": -0.859392
        },
        {
          "id": 8865,
          "operador": "TELEFÓNICA MÓVILES ESPAÑA, S.A.",
          "provincia": "Santa Cruz de Tenerife",
          "direccion": "38_38051_001001",
          "change": "declara_ahora",
          "fromDeclared": false,
          "toDeclared": true,
          "previousBands": [
            "B1",
            "B3"
          ],
          "currentBands": [
            "B1",
            "B3",
            "B20",
            "N28",
            "G09"
          ],
          "previousCodes": [
            "3802111"
          ],
          "currentCodes": [
            "3802111"
          ],
          "previousLat": 28.444906,
          "previousLon": -16.457347,
          "currentLat": 28.444906,
          "currentLon": -16.457347
        }
      ],
      "bandChanges": [
        {
          "id": 1707,
          "operador": "TELEFÓNICA MÓVILES ESPAÑA, S.A.",
          "provincia": "Ciudad Real",
          "direccion": "Piedrabuena",
          "fromDeclared": true,
          "toDeclared": true,
          "fromMatched": true,
          "toMatched": true,
          "previousBands": [
            "B1",
            "B20",
            "B3",
            "B7",
            "G09",
            "N28",
            "N78+",
            "U21"
          ],
          "currentBands": [
            "B1",
            "B20",
            "B3",
            "B7",
            "G09",
            "N28",
            "N78+"
          ],
          "addedBands": [],
          "removedBands": [
            "U21"
          ],
          "previousCodes": [
            "1300317"
          ],
          "currentCodes": [
            "1300317"
          ],
          "previousLat": 39.035206,
          "previousLon": -4.175653,
          "currentLat": 39.035206,
          "currentLon": -4.175653
        },
        {
          "id": 6611,
          "operador": "TELEFÓNICA MÓVILES ESPAÑA, S.A.",
          "provincia": "Valencia/València",
          "direccion": "Higueruelas",
          "fromDeclared": false,
          "toDeclared": true,
          "fromMatched": true,
          "toMatched": true,
          "previousBands": [
            "B20",
            "G09"
          ],
          "currentBands": [
            "B20",
            "G09",
            "N28+"
          ],
          "addedBands": [
            "N28+"
          ],
          "removedBands": [],
          "previousCodes": [
            "4600628"
          ],
          "currentCodes": [
            "4600628"
          ],
          "previousLat": 39.782531,
          "previousLon": -0.859392,
          "currentLat": 39.782531,
          "currentLon": -0.859392
        },
        {
          "id": 7373,
          "operador": "ORANGE ESPAGNE S.A.",
          "provincia": "Alicante/Alacant",
          "direccion": "03_03107_001128",
          "fromDeclared": true,
          "toDeclared": true,
          "fromMatched": true,
          "toMatched": true,
          "previousBands": [
            "B1",
            "B20",
            "B3",
            "G09",
            "N28",
            "N78",
            "U21"
          ],
          "currentBands": [
            "B1",
            "B20",
            "B3",
            "G09",
            "N28",
            "N78"
          ],
          "addedBands": [],
          "removedBands": [
            "U21"
          ],
          "previousCodes": [
            "VALR6360A"
          ],
          "currentCodes": [
            "VALR6360A"
          ],
          "previousLat": 38.621208,
          "previousLon": -0.134892,
          "currentLat": 38.621208,
          "currentLon": -0.134892
        },
        {
          "id": 8865,
          "operador": "TELEFÓNICA MÓVILES ESPAÑA, S.A.",
          "provincia": "Santa Cruz de Tenerife",
          "direccion": "38_38051_001001",
          "fromDeclared": false,
          "toDeclared": true,
          "fromMatched": true,
          "toMatched": true,
          "previousBands": [
            "B1",
            "B3"
          ],
          "currentBands": [
            "B1",
            "B20",
            "B3",
            "G09",
            "N28"
          ],
          "addedBands": [
            "B20",
            "G09",
            "N28"
          ],
          "removedBands": [],
          "previousCodes": [
            "3802111"
          ],
          "currentCodes": [
            "3802111"
          ],
          "previousLat": 28.444906,
          "previousLon": -16.457347,
          "currentLat": 28.444906,
          "currentLon": -16.457347
        },
        {
          "id": 9094,
          "operador": "TELEFÓNICA MÓVILES ESPAÑA, S.A.",
          "provincia": "Tarragona",
          "direccion": "43_43164_000687",
          "fromDeclared": true,
          "toDeclared": true,
          "fromMatched": true,
          "toMatched": true,
          "previousBands": [
            "B20",
            "B3",
            "G09",
            "N28",
            "N78+",
            "U21"
          ],
          "currentBands": [
            "B1",
            "B20",
            "B3",
            "G09",
            "N28",
            "N78+"
          ],
          "addedBands": [
            "B1"
          ],
          "removedBands": [
            "U21"
          ],
          "previousCodes": [
            "4300719"
          ],
          "currentCodes": [
            "4300719"
          ],
          "previousLat": 41.179247,
          "previousLon": 1.350453,
          "currentLat": 41.179247,
          "currentLon": 1.350453
        }
      ]
    },
    {
      "generatedAt": "2026-05-06T07:13:11.475Z",
      "previousSnapshotAt": "2026-05-05T06:31:50.296Z",
      "summary": {
        "totalChanges": 0,
        "gained": 0,
        "lost": 0,
        "totalBandChangeSites": 0,
        "totalBandsAdded": 0,
        "totalBandsRemoved": 0
      },
      "changes": [],
      "bandChanges": []
    },
    {
      "generatedAt": "2026-05-05T06:31:50.296Z",
      "previousSnapshotAt": "2026-05-04T15:19:37.226Z",
      "summary": {
        "totalChanges": 1,
        "gained": 1,
        "lost": 0,
        "totalBandChangeSites": 13,
        "totalBandsAdded": 9,
        "totalBandsRemoved": 9
      },
      "changes": [
        {
          "id": 5918,
          "operador": "VODAFONE ESPAÑA S.A.",
          "provincia": "Soria",
          "direccion": "Fuentelmonge",
          "change": "declara_ahora",
          "fromDeclared": false,
          "toDeclared": true,
          "previousBands": [],
          "currentBands": [
            "N78",
            "B20",
            "G09"
          ],
          "previousCodes": [],
          "currentCodes": [
            "211658"
          ],
          "previousLat": null,
          "previousLon": null,
          "currentLat": 41.42125,
          "currentLon": -2.184861
        }
      ],
      "bandChanges": [
        {
          "id": 687,
          "operador": "AVATEL TELECOM S.A.",
          "provincia": "Badajoz",
          "direccion": "Haba, La",
          "fromDeclared": true,
          "toDeclared": true,
          "fromMatched": true,
          "toMatched": true,
          "previousBands": [
            "B1",
            "B20",
            "B3",
            "B7",
            "G09",
            "N28",
            "N78",
            "U21"
          ],
          "currentBands": [
            "B1",
            "B20",
            "B3",
            "B7",
            "G09",
            "N28",
            "N78"
          ],
          "addedBands": [],
          "removedBands": [
            "U21"
          ],
          "previousCodes": [
            "EXTR0518M"
          ],
          "currentCodes": [
            "EXTR0518M"
          ],
          "previousLat": 38.917569,
          "previousLon": -5.789083,
          "currentLat": 38.917569,
          "currentLon": -5.789083
        },
        {
          "id": 2073,
          "operador": "ORANGE ESPAGNE S.A.",
          "provincia": "Coruña, A",
          "direccion": "Oza-Cesuras",
          "fromDeclared": true,
          "toDeclared": true,
          "fromMatched": true,
          "toMatched": true,
          "previousBands": [
            "B1",
            "B20",
            "B3",
            "G09",
            "N28",
            "N78",
            "U21"
          ],
          "currentBands": [
            "B1",
            "B20",
            "B3",
            "G09",
            "N28",
            "N78"
          ],
          "addedBands": [],
          "removedBands": [
            "U21"
          ],
          "previousCodes": [
            "GALR1535B"
          ],
          "currentCodes": [
            "GALR1535B"
          ],
          "previousLat": 43.225056,
          "previousLon": -8.19,
          "currentLat": 43.225056,
          "currentLon": -8.19
        },
        {
          "id": 2103,
          "operador": "ORANGE ESPAGNE S.A.",
          "provincia": "Coruña, A",
          "direccion": "Zas",
          "fromDeclared": true,
          "toDeclared": true,
          "fromMatched": true,
          "toMatched": true,
          "previousBands": [
            "B1",
            "B20",
            "B3",
            "G09",
            "N28",
            "N78",
            "U21"
          ],
          "currentBands": [
            "B1",
            "B20",
            "B3",
            "G09",
            "N28",
            "N78"
          ],
          "addedBands": [],
          "removedBands": [
            "U21"
          ],
          "previousCodes": [
            "GALR0424B"
          ],
          "currentCodes": [
            "GALR0424B"
          ],
          "previousLat": 42.846472,
          "previousLon": -8.911111,
          "currentLat": 42.846472,
          "currentLon": -8.911111
        },
        {
          "id": 2587,
          "operador": "TELEFÓNICA MÓVILES ESPAÑA, S.A.",
          "provincia": "Granada",
          "direccion": "Villa de Otura",
          "fromDeclared": true,
          "toDeclared": true,
          "fromMatched": true,
          "toMatched": true,
          "previousBands": [
            "B20",
            "B3",
            "B8",
            "G09",
            "N28",
            "N78"
          ],
          "currentBands": [
            "B20",
            "B3",
            "B8",
            "G09",
            "N28",
            "N78+"
          ],
          "addedBands": [
            "N78+"
          ],
          "removedBands": [
            "N78"
          ],
          "previousCodes": [
            "1800095"
          ],
          "currentCodes": [
            "1800095"
          ],
          "previousLat": 37.073056,
          "previousLon": -3.651361,
          "currentLat": 37.073056,
          "currentLon": -3.651361
        },
        {
          "id": 3691,
          "operador": "VODAFONE ESPAÑA S.A.",
          "provincia": "Lleida",
          "direccion": "Albesa",
          "fromDeclared": true,
          "toDeclared": true,
          "fromMatched": true,
          "toMatched": true,
          "previousBands": [
            "B20",
            "N28",
            "N78"
          ],
          "currentBands": [
            "B20",
            "G09",
            "N28",
            "N78"
          ],
          "addedBands": [
            "G09"
          ],
          "removedBands": [],
          "previousCodes": [
            "054077",
            "54077"
          ],
          "currentCodes": [
            "054077",
            "54077"
          ],
          "previousLat": 41.7541,
          "previousLon": 0.660403,
          "currentLat": 41.7541,
          "currentLon": 0.660403
        },
        {
          "id": 4900,
          "operador": "ORANGE ESPAGNE S.A.",
          "provincia": "Asturias",
          "direccion": "Cabrales",
          "fromDeclared": true,
          "toDeclared": true,
          "fromMatched": true,
          "toMatched": true,
          "previousBands": [
            "B20",
            "G09",
            "N28",
            "N78",
            "U21"
          ],
          "currentBands": [
            "B1",
            "B20",
            "G09",
            "N28",
            "N78"
          ],
          "addedBands": [
            "B1"
          ],
          "removedBands": [
            "U21"
          ],
          "previousCodes": [
            "ASTR1462B"
          ],
          "currentCodes": [
            "ASTR1462B"
          ],
          "previousLat": 43.230633,
          "previousLon": -4.748403,
          "currentLat": 43.230633,
          "currentLon": -4.748403
        },
        {
          "id": 4918,
          "operador": "ORANGE ESPAGNE S.A.",
          "provincia": "Asturias",
          "direccion": "Ribadedeva",
          "fromDeclared": true,
          "toDeclared": true,
          "fromMatched": true,
          "toMatched": true,
          "previousBands": [
            "B1",
            "B20",
            "B3",
            "G09",
            "N28",
            "N78",
            "U21"
          ],
          "currentBands": [
            "B1",
            "B20",
            "B3",
            "G09",
            "N28",
            "N78"
          ],
          "addedBands": [],
          "removedBands": [
            "U21"
          ],
          "previousCodes": [
            "ASTR6206A"
          ],
          "currentCodes": [
            "ASTR6206A"
          ],
          "previousLat": 43.377592,
          "previousLon": -4.552497,
          "currentLat": 43.377592,
          "currentLon": -4.552497
        },
        {
          "id": 5379,
          "operador": "VODAFONE ESPAÑA S.A.",
          "provincia": "Santa Cruz de Tenerife",
          "direccion": "Matanza de Acentejo, La",
          "fromDeclared": true,
          "toDeclared": true,
          "fromMatched": true,
          "toMatched": true,
          "previousBands": [
            "B20",
            "G09",
            "N28",
            "N78"
          ],
          "currentBands": [
            "B20",
            "B3",
            "G09",
            "N28",
            "N78"
          ],
          "addedBands": [
            "B3"
          ],
          "removedBands": [],
          "previousCodes": [
            "069401",
            "69401"
          ],
          "currentCodes": [
            "069401",
            "69401"
          ],
          "previousLat": 28.455139,
          "previousLon": -16.452472,
          "currentLat": 28.455139,
          "currentLon": -16.452472
        },
        {
          "id": 5484,
          "operador": "ORANGE ESPAGNE S.A.",
          "provincia": "Cantabria",
          "direccion": "Santa María de Cayón",
          "fromDeclared": true,
          "toDeclared": true,
          "fromMatched": true,
          "toMatched": true,
          "previousBands": [
            "B1",
            "B20",
            "B3",
            "B7",
            "G09",
            "N28",
            "N78",
            "U21"
          ],
          "currentBands": [
            "B1",
            "B20",
            "B3",
            "B7",
            "G09",
            "N28",
            "N78"
          ],
          "addedBands": [],
          "removedBands": [
            "U21"
          ],
          "previousCodes": [
            "CTBR1401A"
          ],
          "currentCodes": [
            "CTBR1401A"
          ],
          "previousLat": 43.298758,
          "previousLon": -3.863286,
          "currentLat": 43.298758,
          "currentLon": -3.863286
        },
        {
          "id": 5512,
          "operador": "ORANGE ESPAGNE S.A.",
          "provincia": "Cantabria",
          "direccion": "Marina de Cudeyo",
          "fromDeclared": true,
          "toDeclared": true,
          "fromMatched": true,
          "toMatched": true,
          "previousBands": [
            "B1",
            "B20",
            "B3",
            "G09",
            "N28",
            "N78",
            "U21"
          ],
          "currentBands": [
            "B1",
            "B20",
            "B3",
            "G09",
            "N28",
            "N78"
          ],
          "addedBands": [],
          "removedBands": [
            "U21"
          ],
          "previousCodes": [
            "CTBR1801E"
          ],
          "currentCodes": [
            "CTBR1801E"
          ],
          "previousLat": 43.441997,
          "previousLon": -3.768772,
          "currentLat": 43.441997,
          "currentLon": -3.768772
        },
        {
          "id": 5532,
          "operador": "ORANGE ESPAGNE S.A.",
          "provincia": "Cantabria",
          "direccion": "Campoo de Enmedio",
          "fromDeclared": true,
          "toDeclared": true,
          "fromMatched": true,
          "toMatched": true,
          "previousBands": [
            "B1",
            "B20",
            "B3",
            "G09",
            "N28",
            "N78",
            "U21"
          ],
          "currentBands": [
            "B1",
            "B20",
            "B3",
            "G09",
            "N28",
            "N78"
          ],
          "addedBands": [],
          "removedBands": [
            "U21"
          ],
          "previousCodes": [
            "CTBR2601C"
          ],
          "currentCodes": [
            "CTBR2601C"
          ],
          "previousLat": 43.371336,
          "previousLon": -3.869264,
          "currentLat": 43.371336,
          "currentLon": -3.869264
        },
        {
          "id": 5918,
          "operador": "VODAFONE ESPAÑA S.A.",
          "provincia": "Soria",
          "direccion": "Fuentelmonge",
          "fromDeclared": false,
          "toDeclared": true,
          "fromMatched": false,
          "toMatched": true,
          "previousBands": [],
          "currentBands": [
            "B20",
            "G09",
            "N78"
          ],
          "addedBands": [
            "B20",
            "G09",
            "N78"
          ],
          "removedBands": [],
          "previousCodes": [],
          "currentCodes": [
            "211658"
          ],
          "previousLat": null,
          "previousLon": null,
          "currentLat": 41.42125,
          "currentLon": -2.184861
        },
        {
          "id": 6742,
          "operador": "VODAFONE ESPAÑA S.A.",
          "provincia": "Valladolid",
          "direccion": "Tordesillas",
          "fromDeclared": true,
          "toDeclared": true,
          "fromMatched": true,
          "toMatched": true,
          "previousBands": [
            "B20",
            "B3",
            "G09",
            "N28"
          ],
          "currentBands": [
            "B1",
            "B20",
            "B3",
            "G09",
            "N28",
            "N78"
          ],
          "addedBands": [
            "B1",
            "N78"
          ],
          "removedBands": [],
          "previousCodes": [
            "192485"
          ],
          "currentCodes": [
            "192485"
          ],
          "previousLat": 41.505667,
          "previousLon": -4.989011,
          "currentLat": 41.505667,
          "currentLon": -4.989011
        }
      ]
    },
    {
      "generatedAt": "2026-05-04T15:19:37.226Z",
      "previousSnapshotAt": "2026-05-01T07:10:37.137Z",
      "summary": {
        "totalChanges": 0,
        "gained": 0,
        "lost": 0,
        "totalBandChangeSites": 25,
        "totalBandsAdded": 19,
        "totalBandsRemoved": 16
      },
      "changes": [],
      "bandChanges": [
        {
          "id": 2109,
          "operador": "ORANGE ESPAGNE S.A.",
          "provincia": "Coruña, A",
          "direccion": "Curtis",
          "fromDeclared": true,
          "toDeclared": true,
          "fromMatched": true,
          "toMatched": true,
          "previousBands": [
            "B1",
            "B20",
            "B3",
            "G09",
            "N28",
            "N78",
            "U21"
          ],
          "currentBands": [
            "B1",
            "B20",
            "B3",
            "G09",
            "N28",
            "N78"
          ],
          "addedBands": [],
          "removedBands": [
            "U21"
          ],
          "previousCodes": [
            "GALR1079A"
          ],
          "currentCodes": [
            "GALR1079A"
          ],
          "previousLat": 43.121889,
          "previousLon": -8.138667,
          "currentLat": 43.121889,
          "currentLon": -8.138667
        },
        {
          "id": 2789,
          "operador": "TELEFÓNICA MÓVILES ESPAÑA, S.A.",
          "provincia": "Guadalajara",
          "direccion": "Abánades",
          "fromDeclared": true,
          "toDeclared": true,
          "fromMatched": true,
          "toMatched": true,
          "previousBands": [
            "B20",
            "G09",
            "N78+"
          ],
          "currentBands": [
            "B20",
            "G09",
            "N28",
            "N78+"
          ],
          "addedBands": [
            "N28"
          ],
          "removedBands": [],
          "previousCodes": [
            "1900239"
          ],
          "currentCodes": [
            "1900239"
          ],
          "previousLat": 40.888403,
          "previousLon": -2.488942,
          "currentLat": 40.888403,
          "currentLon": -2.488942
        },
        {
          "id": 3920,
          "operador": "ORANGE ESPAGNE S.A.",
          "provincia": "Lugo",
          "direccion": "Chantada",
          "fromDeclared": true,
          "toDeclared": true,
          "fromMatched": true,
          "toMatched": true,
          "previousBands": [
            "B1",
            "B20",
            "B3",
            "B7",
            "G09",
            "N28",
            "N78",
            "U21"
          ],
          "currentBands": [
            "B1",
            "B20",
            "B3",
            "B7",
            "G09",
            "N28",
            "N78"
          ],
          "addedBands": [],
          "removedBands": [
            "U21"
          ],
          "previousCodes": [
            "GALR7370B"
          ],
          "currentCodes": [
            "GALR7370B"
          ],
          "previousLat": 42.609444,
          "previousLon": -7.781361,
          "currentLat": 42.609444,
          "currentLon": -7.781361
        },
        {
          "id": 3988,
          "operador": "ORANGE ESPAGNE S.A.",
          "provincia": "Lugo",
          "direccion": "Palas de Rei",
          "fromDeclared": true,
          "toDeclared": true,
          "fromMatched": true,
          "toMatched": true,
          "previousBands": [
            "B1",
            "B20",
            "B3",
            "G09",
            "N28",
            "N78",
            "U21"
          ],
          "currentBands": [
            "B1",
            "B20",
            "B3",
            "G09",
            "N28",
            "N78"
          ],
          "addedBands": [],
          "removedBands": [
            "U21"
          ],
          "previousCodes": [
            "GALR8046A"
          ],
          "currentCodes": [
            "GALR8046A"
          ],
          "previousLat": 42.464444,
          "previousLon": -7.726028,
          "currentLat": 42.464444,
          "currentLon": -7.726028
        },
        {
          "id": 4403,
          "operador": "TELEFÓNICA MÓVILES ESPAÑA, S.A.",
          "provincia": "Navarra",
          "direccion": "Mendaza",
          "fromDeclared": true,
          "toDeclared": true,
          "fromMatched": true,
          "toMatched": true,
          "previousBands": [
            "B1",
            "B20",
            "B3",
            "G09",
            "N28",
            "N78+"
          ],
          "currentBands": [
            "B1",
            "B20",
            "B3",
            "B8",
            "G09",
            "N28",
            "N78+"
          ],
          "addedBands": [
            "B8"
          ],
          "removedBands": [],
          "previousCodes": [
            "3100025"
          ],
          "currentCodes": [
            "3100025"
          ],
          "previousLat": 42.637889,
          "previousLon": -2.227108,
          "currentLat": 42.637889,
          "currentLon": -2.227108
        },
        {
          "id": 4472,
          "operador": "TELEFÓNICA MÓVILES ESPAÑA, S.A.",
          "provincia": "Navarra",
          "direccion": "Arcos, Los",
          "fromDeclared": true,
          "toDeclared": true,
          "fromMatched": true,
          "toMatched": true,
          "previousBands": [
            "B20",
            "G09",
            "N28",
            "N78+",
            "U21"
          ],
          "currentBands": [
            "B20",
            "B8",
            "G09",
            "N28",
            "N78+",
            "U21"
          ],
          "addedBands": [
            "B8"
          ],
          "removedBands": [],
          "previousCodes": [
            "3100108"
          ],
          "currentCodes": [
            "3100108"
          ],
          "previousLat": 42.565314,
          "previousLon": -2.195517,
          "currentLat": 42.565314,
          "currentLon": -2.195517
        },
        {
          "id": 4642,
          "operador": "ORANGE ESPAGNE S.A.",
          "provincia": "Ourense",
          "direccion": "Coles",
          "fromDeclared": true,
          "toDeclared": true,
          "fromMatched": true,
          "toMatched": true,
          "previousBands": [
            "B20",
            "G09",
            "N28",
            "N78",
            "U21"
          ],
          "currentBands": [
            "B1",
            "B20",
            "G09",
            "N28",
            "N78"
          ],
          "addedBands": [
            "B1"
          ],
          "removedBands": [
            "U21"
          ],
          "previousCodes": [
            "GALR9803A"
          ],
          "currentCodes": [
            "GALR9803A"
          ],
          "previousLat": 42.393753,
          "previousLon": -7.847978,
          "currentLat": 42.393753,
          "currentLon": -7.847978
        },
        {
          "id": 4643,
          "operador": "ORANGE ESPAGNE S.A.",
          "provincia": "Ourense",
          "direccion": "Coles",
          "fromDeclared": true,
          "toDeclared": true,
          "fromMatched": true,
          "toMatched": true,
          "previousBands": [
            "B20",
            "G09",
            "N28",
            "N78",
            "U21"
          ],
          "currentBands": [
            "B1",
            "B20",
            "G09",
            "N28",
            "N78"
          ],
          "addedBands": [
            "B1"
          ],
          "removedBands": [
            "U21"
          ],
          "previousCodes": [
            "GALR9802G"
          ],
          "currentCodes": [
            "GALR9802G"
          ],
          "previousLat": 42.416644,
          "previousLon": -7.876086,
          "currentLat": 42.416644,
          "currentLon": -7.876086
        },
        {
          "id": 4679,
          "operador": "ORANGE ESPAGNE S.A.",
          "provincia": "Ourense",
          "direccion": "Vilamarín",
          "fromDeclared": true,
          "toDeclared": true,
          "fromMatched": true,
          "toMatched": true,
          "previousBands": [
            "B20",
            "G09",
            "N28",
            "N78",
            "U21"
          ],
          "currentBands": [
            "B1",
            "B20",
            "G09",
            "N28",
            "N78"
          ],
          "addedBands": [
            "B1"
          ],
          "removedBands": [
            "U21"
          ],
          "previousCodes": [
            "GALR9090B"
          ],
          "currentCodes": [
            "GALR9090B"
          ],
          "previousLat": 42.467386,
          "previousLon": -7.883567,
          "currentLat": 42.467386,
          "currentLon": -7.883567
        },
        {
          "id": 5343,
          "operador": "TELEFÓNICA MÓVILES ESPAÑA, S.A.",
          "provincia": "Salamanca",
          "direccion": "Castellanos de Moriscos",
          "fromDeclared": true,
          "toDeclared": true,
          "fromMatched": true,
          "toMatched": true,
          "previousBands": [
            "B1",
            "N28",
            "N78+"
          ],
          "currentBands": [
            "B1",
            "B20",
            "B3",
            "B8",
            "G09",
            "N28",
            "N78+"
          ],
          "addedBands": [
            "B20",
            "B3",
            "B8",
            "G09"
          ],
          "removedBands": [],
          "previousCodes": [
            "3700619"
          ],
          "currentCodes": [
            "3700619"
          ],
          "previousLat": 41.022636,
          "previousLon": -5.591181,
          "currentLat": 41.022636,
          "currentLon": -5.591181
        },
        {
          "id": 5493,
          "operador": "ORANGE ESPAGNE S.A.",
          "provincia": "Cantabria",
          "direccion": "Reocín",
          "fromDeclared": true,
          "toDeclared": true,
          "fromMatched": true,
          "toMatched": true,
          "previousBands": [
            "B1",
            "B20",
            "B3",
            "B7",
            "G09",
            "N28",
            "N78",
            "U21"
          ],
          "currentBands": [
            "B1",
            "B20",
            "B3",
            "B7",
            "G09",
            "N28",
            "N78"
          ],
          "addedBands": [],
          "removedBands": [
            "U21"
          ],
          "previousCodes": [
            "CTBR1301D"
          ],
          "currentCodes": [
            "CTBR1301D"
          ],
          "previousLat": 43.355844,
          "previousLon": -4.084678,
          "currentLat": 43.355844,
          "currentLon": -4.084678
        },
        {
          "id": 5494,
          "operador": "ORANGE ESPAGNE S.A.",
          "provincia": "Cantabria",
          "direccion": "Reocín",
          "fromDeclared": true,
          "toDeclared": true,
          "fromMatched": true,
          "toMatched": true,
          "previousBands": [
            "B1",
            "B20",
            "B3",
            "G09",
            "N28",
            "N78",
            "U21"
          ],
          "currentBands": [
            "B1",
            "B20",
            "B3",
            "G09",
            "N28",
            "N78"
          ],
          "addedBands": [],
          "removedBands": [
            "U21"
          ],
          "previousCodes": [
            "CTBR7701B"
          ],
          "currentCodes": [
            "CTBR7701B"
          ],
          "previousLat": 43.353511,
          "previousLon": -4.134039,
          "currentLat": 43.353511,
          "currentLon": -4.134039
        },
        {
          "id": 5496,
          "operador": "ORANGE ESPAGNE S.A.",
          "provincia": "Cantabria",
          "direccion": "Reocín",
          "fromDeclared": true,
          "toDeclared": true,
          "fromMatched": true,
          "toMatched": true,
          "previousBands": [
            "B1",
            "B20",
            "B3",
            "G09",
            "N28",
            "N78",
            "U21"
          ],
          "currentBands": [
            "B1",
            "B20",
            "B3",
            "G09",
            "N28",
            "N78"
          ],
          "addedBands": [],
          "removedBands": [
            "U21"
          ],
          "previousCodes": [
            "CTBR1071A"
          ],
          "currentCodes": [
            "CTBR1071A"
          ],
          "previousLat": 43.332922,
          "previousLon": -4.0992,
          "currentLat": 43.332922,
          "currentLon": -4.0992
        },
        {
          "id": 5501,
          "operador": "ORANGE ESPAGNE S.A.",
          "provincia": "Cantabria",
          "direccion": "Medio Cudeyo",
          "fromDeclared": true,
          "toDeclared": true,
          "fromMatched": true,
          "toMatched": true,
          "previousBands": [
            "B1",
            "B20",
            "B3",
            "G09",
            "N28",
            "N78",
            "U21"
          ],
          "currentBands": [
            "B1",
            "B20",
            "B3",
            "G09",
            "N28",
            "N78"
          ],
          "addedBands": [],
          "removedBands": [
            "U21"
          ],
          "previousCodes": [
            "CTBR1702B",
            "CTBR1702A"
          ],
          "currentCodes": [
            "CTBR1702B",
            "CTBR1702A"
          ],
          "previousLat": 43.382397,
          "previousLon": -3.734217,
          "currentLat": 43.382397,
          "currentLon": -3.734217
        },
        {
          "id": 5511,
          "operador": "ORANGE ESPAGNE S.A.",
          "provincia": "Cantabria",
          "direccion": "Marina de Cudeyo",
          "fromDeclared": true,
          "toDeclared": true,
          "fromMatched": true,
          "toMatched": true,
          "previousBands": [
            "B20",
            "B3",
            "G09",
            "N28",
            "N78",
            "U21"
          ],
          "currentBands": [
            "B1",
            "B20",
            "B3",
            "G09",
            "N28",
            "N78"
          ],
          "addedBands": [
            "B1"
          ],
          "removedBands": [
            "U21"
          ],
          "previousCodes": [
            "CTBR8302K"
          ],
          "currentCodes": [
            "CTBR8302K"
          ],
          "previousLat": 43.408036,
          "previousLon": -3.785636,
          "currentLat": 43.408036,
          "currentLon": -3.785636
        },
        {
          "id": 5515,
          "operador": "ORANGE ESPAGNE S.A.",
          "provincia": "Cantabria",
          "direccion": "Miengo",
          "fromDeclared": true,
          "toDeclared": true,
          "fromMatched": true,
          "toMatched": true,
          "previousBands": [
            "B20",
            "G09",
            "N28",
            "N78",
            "U21"
          ],
          "currentBands": [
            "B1",
            "B20",
            "G09",
            "N28",
            "N78"
          ],
          "addedBands": [
            "B1"
          ],
          "removedBands": [
            "U21"
          ],
          "previousCodes": [
            "CTBR7802A"
          ],
          "currentCodes": [
            "CTBR7802A"
          ],
          "previousLat": 43.408161,
          "previousLon": -3.988411,
          "currentLat": 43.408161,
          "currentLon": -3.988411
        },